{"type":"Topology","arcs":[[[26,301],[25,90]],[[51,391],[184,-151]],[[235,240],[-2,-17],[-3,-21]],[[230,202],[-61,18],[-64,16]],[[105,236],[-79,65]],[[0,204],[26,97]],[[105,236],[-27,-27]],[[78,209],[-78,-5]],[[39,113],[-39,91]],[[78,209],[-6,-37],[14,-45]],[[86,127],[-47,-14]],[[230,202],[-6,-35]],[[224,167],[-80,-35]],[[144,132],[-41,-33]],[[103,99],[-17,28]],[[74,33],[-35,80]],[[103,99],[-14,-12],[-15,-54]],[[202,9],[-128,24]],[[144,132],[58,-123]],[[364,140],[-15,-44],[-98,-96],[-49,9]],[[224,167],[78,-19],[62,-8]],[[397,307],[7,-48],[-40,-119]],[[235,240],[3,27]],[[238,267],[3,22],[4,24]],[[245,313],[7,48]],[[252,361],[61,-35],[84,-19]],[[383,408],[14,-101]],[[252,361],[131,47]],[[251,465],[132,-57]],[[252,361],[-1,104]],[[191,443],[60,22]],[[252,361],[-61,82]],[[143,425],[48,18]],[[245,313],[-102,112]],[[87,405],[56,20]],[[238,267],[-151,138]],[[51,391],[36,14]]],"transform":{"scale":[0.00012690477994920454,0.00013213345591402587],"translate":[166.910406945666,-0.557367901928779]},"objects":{"nauru":{"type":"GeometryCollection","geometries":[{"arcs":[[0,1,2,3,4]],"type":"Polygon","properties":{"iso_a2":"NR","name":"Nibok","type":null,"type_en":null,"code_hasc":"NR.NI","region":null,"postal":null,"labelrank":20,"fips":"NR12","woe_id":20070306,"woe_label":null,"woe_name":"Nibok","latitude":-0.512961,"longitude":166.921,"admin":"Nauru","id":"NR.NI"}},{"arcs":[[5,-5,6,7]],"type":"Polygon","properties":{"iso_a2":"NR","name":"Denigomodu","type":null,"type_en":null,"code_hasc":"NR.DE","region":null,"postal":null,"labelrank":20,"fips":"NR08","woe_id":20070302,"woe_label":null,"woe_name":"Denigomodu","latitude":-0.520335,"longitude":166.914,"admin":"Nauru","id":"NR.DE"}},{"arcs":[[8,-8,9,10]],"type":"Polygon","properties":{"iso_a2":"NR","name":"Aiwo","type":null,"type_en":null,"code_hasc":"NR.AI","region":null,"postal":null,"labelrank":20,"fips":"NR01","woe_id":20070298,"woe_label":null,"woe_name":"Aiwo","latitude":-0.529816,"longitude":166.913,"admin":"Nauru","id":"NR.AI"}},{"arcs":[[11,12,13,14,-10,-7,-4]],"type":"Polygon","properties":{"iso_a2":"NR","name":"Buada","type":null,"type_en":null,"code_hasc":"NR.BU","region":null,"postal":null,"labelrank":20,"fips":"NR07","woe_id":20070303,"woe_label":null,"woe_name":"Buada","latitude":-0.527877,"longitude":166.925,"admin":"Nauru","id":"NR.BU"}},{"arcs":[[15,-11,-15,16]],"type":"Polygon","properties":{"iso_a2":"NR","name":"Boe","type":null,"type_en":null,"code_hasc":"NR.BO","region":null,"postal":null,"labelrank":20,"fips":"NR06","woe_id":20070299,"woe_label":null,"woe_name":"Boe","latitude":-0.538594,"longitude":166.916,"admin":"Nauru","id":"NR.BO"}},{"arcs":[[17,-17,-14,18]],"type":"Polygon","properties":{"iso_a2":"NR","name":"Yaren","type":null,"type_en":null,"code_hasc":"NR.YA","region":null,"postal":null,"labelrank":20,"fips":"NR14","woe_id":20070300,"woe_label":null,"woe_name":"Yaren","latitude":-0.543159,"longitude":166.925,"admin":"Nauru","id":"NR.YA"}},{"arcs":[[19,-19,-13,20]],"type":"Polygon","properties":{"iso_a2":"NR","name":"Meneng","type":null,"type_en":null,"code_hasc":"NR.ME","region":null,"postal":null,"labelrank":20,"fips":"NR11","woe_id":20070301,"woe_label":null,"woe_name":"Meneng","latitude":-0.539648,"longitude":166.939,"admin":"Nauru","id":"NR.ME"}},{"arcs":[[21,-21,-12,-3,22,23,24,25]],"type":"Polygon","properties":{"iso_a2":"NR","name":"Anibare","type":null,"type_en":null,"code_hasc":"NR.AR","region":null,"postal":null,"labelrank":20,"fips":"NR04","woe_id":20070304,"woe_label":null,"woe_name":"Anibare","latitude":-0.519984,"longitude":166.947,"admin":"Nauru","id":"NR.AR"}},{"arcs":[[26,-26,27]],"type":"Polygon","properties":{"iso_a2":"NR","name":"Ijuw","type":null,"type_en":null,"code_hasc":"NR.IJ","region":null,"postal":null,"labelrank":20,"fips":"NR10","woe_id":20070305,"woe_label":null,"woe_name":"Ijuw","latitude":-0.504534,"longitude":166.951,"admin":"Nauru","id":"NR.IJ"}},{"arcs":[[28,-28,29]],"type":"Polygon","properties":{"iso_a2":"NR","name":"Anabar","type":null,"type_en":null,"code_hasc":"NR.AB","region":null,"postal":null,"labelrank":20,"fips":"NR02","woe_id":20070308,"woe_label":null,"woe_name":"Anabar","latitude":-0.497511,"longitude":166.944,"admin":"Nauru","id":"NR.AB"}},{"arcs":[[30,-30,31]],"type":"Polygon","properties":{"iso_a2":"NR","name":"Anetan","type":null,"type_en":null,"code_hasc":"NR.AT","region":null,"postal":null,"labelrank":20,"fips":"NR03","woe_id":20070311,"woe_label":null,"woe_name":"Anetan","latitude":-0.494702,"longitude":166.936,"admin":"Nauru","id":"NR.AT"}},{"arcs":[[32,-32,-25,33]],"type":"Polygon","properties":{"iso_a2":"NR","name":"Ewa","type":null,"type_en":null,"code_hasc":"NR.EW","region":null,"postal":null,"labelrank":20,"fips":"NR09","woe_id":20070310,"woe_label":null,"woe_name":"Ewa","latitude":-0.502076,"longitude":166.934,"admin":"Nauru","id":"NR.EW"}},{"arcs":[[34,-34,-24,35]],"type":"Polygon","properties":{"iso_a2":"NR","name":"Baiti","type":null,"type_en":null,"code_hasc":"NR.BA","region":null,"postal":null,"labelrank":20,"fips":"NR05","woe_id":20070309,"woe_label":null,"woe_name":"Baiti","latitude":-0.500672,"longitude":166.925,"admin":"Nauru","id":"NR.BA"}},{"arcs":[[36,-36,-23,-2]],"type":"Polygon","properties":{"iso_a2":"NR","name":"Uaboe","type":null,"type_en":null,"code_hasc":"NR.UA","region":null,"postal":null,"labelrank":20,"fips":"NR13","woe_id":20070307,"woe_label":null,"woe_name":"Uaboe","latitude":-0.506992,"longitude":166.924,"admin":"Nauru","id":"NR.UA"}}]}},"crs":{"type":"name","properties":{"name":"urn:ogc:def:crs:OGC:1.3:CRS84"}}}